2025-07-28T06:27:22,202031035+02:00;$GPGGA,042722.00,5225.507563,N,01046.891742,E,1,09,0.6,61.8,M,46.0,M,,*5F
2025-07-28T06:27:22,390389282+02:00;$GPGGA,042722.20,5225.507545,N,01046.892770,E,1,10,0.5,62.1,M,46.0,M,,*5A
2025-07-28T06:27:22,592212452+02:00;$GPGGA,042722.40,5225.507536,N,01046.893664,E,1,09,0.5,62.1,M,46.0,M,,*55
2025-07-28T06:27:22,791292219+02:00;$GPGGA,042722.60,5225.507554,N,01046.894523,E,1,09,0.5,62.2,M,46.0,M,,*57
2025-07-28T06:27:22,992071127+02:00;$GPGGA,042722.80,5225.507569,N,01046.895285,E,1,09,0.5,62.3,M,46.0,M,,*5C
2025-07-28T06:27:23,206144606+02:00;$GPGGA,042723.00,5225.507511,N,01046.896054,E,1,09,0.5,62.3,M,46.0,M,,*57
2025-07-28T06:27:23,398046396+02:00;$GPGGA,042723.20,5225.507585,N,01046.896755,E,1,09,0.5,62.2,M,46.0,M,,*5F
2025-07-28T06:27:23,594837014+02:00;$GPGGA,042723.40,5225.507660,N,01046.897348,E,1,09,0.5,62.1,M,46.0,M,,*5B
2025-07-28T06:27:23,788823871+02:00;$GPGGA,042723.60,5225.507828,N,01046.897943,E,1,09,0.5,62.2,M,46.0,M,,*59
2025-07-28T06:27:23,987625627+02:00;$GPGGA,042723.80,5225.507963,N,01046.898418,E,1,09,0.5,62.2,M,46.0,M,,*55
2025-07-28T06:27:24,201961499+02:00;$GPGGA,042724.00,5225.508036,N,01046.898836,E,1,09,0.5,62.3,M,46.0,M,,*5D
2025-07-28T06:27:24,389676548+02:00;$GPGGA,042724.20,5225.508279,N,01046.899161,E,1,09,0.5,62.3,M,46.0,M,,*5C
2025-07-28T06:27:24,588266795+02:00;$GPGGA,042724.40,5225.508449,N,01046.899403,E,1,09,0.5,62.3,M,46.0,M,,*5E
2025-07-28T06:27:24,791950658+02:00;$GPGGA,042724.60,5225.508559,N,01046.899617,E,1,09,0.5,62.2,M,46.0,M,,*5A
2025-07-28T06:27:24,991872267+02:00;$GPGGA,042724.80,5225.508702,N,01046.899793,E,1,09,0.5,62.3,M,46.0,M,,*54
2025-07-28T06:27:25,207441026+02:00;$GPGGA,042725.00,5225.508801,N,01046.899861,E,1,09,0.5,62.3,M,46.0,M,,*53
2025-07-28T06:27:25,395014653+02:00;$GPGGA,042725.20,5225.508809,N,01046.899987,E,1,09,0.5,62.5,M,46.0,M,,*56
2025-07-28T06:27:25,595808411+02:00;$GPGGA,042725.40,5225.508925,N,01046.900121,E,1,09,0.5,62.6,M,46.0,M,,*59
2025-07-28T06:27:25,791934260+02:00;$GPGGA,042725.60,5225.509010,N,01046.900189,E,1,09,0.5,62.6,M,46.0,M,,*57
2025-07-28T06:27:25,991463767+02:00;$GPGGA,042725.80,5225.509127,N,01046.900235,E,1,09,0.5,62.5,M,46.0,M,,*5B
2025-07-28T06:27:26,202955075+02:00;$GPGGA,042726.00,5225.509213,N,01046.900295,E,1,09,0.5,62.7,M,46.0,M,,*5C
2025-07-28T06:27:26,398312273+02:00;$GPGGA,042726.20,5225.509269,N,01046.900323,E,1,09,0.5,62.8,M,46.0,M,,*50
2025-07-28T06:27:26,592343550+02:00;$GPGGA,042726.40,5225.509351,N,01046.900358,E,1,09,0.5,62.8,M,46.0,M,,*50
2025-07-28T06:27:26,791589382+02:00;$GPGGA,042726.60,5225.509466,N,01046.900373,E,1,09,0.5,62.9,M,46.0,M,,*59
2025-07-28T06:27:26,993898359+02:00;$GPGGA,042726.80,5225.509576,N,01046.900302,E,1,09,0.5,62.8,M,46.0,M,,*50
2025-07-28T06:27:27,202057951+02:00;$GPGGA,042727.00,5225.509726,N,01046.900261,E,1,09,0.5,62.7,M,46.0,M,,*55
2025-07-28T06:27:27,392394470+02:00;$GPGGA,042727.20,5225.509857,N,01046.900259,E,1,09,0.5,62.6,M,46.0,M,,*54
2025-07-28T06:27:27,591578280+02:00;$GPGGA,042727.40,5225.509991,N,01046.900171,E,1,09,0.5,62.6,M,46.0,M,,*50
2025-07-28T06:27:27,791289596+02:00;$GPGGA,042727.60,5225.510069,N,01046.900020,E,1,09,0.5,62.5,M,46.0,M,,*52
2025-07-28T06:27:27,991512067+02:00;$GPGGA,042727.80,5225.510235,N,01046.899816,E,1,09,0.5,62.6,M,46.0,M,,*58
2025-07-28T06:27:28,203386196+02:00;$GPGGA,042728.00,5225.510369,N,01046.899655,E,1,09,0.5,62.5,M,46.0,M,,*5D
2025-07-28T06:27:28,389688211+02:00;$GPGGA,042728.20,5225.510566,N,01046.899553,E,1,10,0.5,62.9,M,46.0,M,,*57
2025-07-28T06:27:28,588737512+02:00;$GPGGA,042728.40,5225.510701,N,01046.899325,E,1,10,0.5,63.0,M,46.0,M,,*5D
2025-07-28T06:27:28,791250380+02:00;$GPGGA,042728.60,5225.510811,N,01046.899119,E,1,10,0.5,63.0,M,46.0,M,,*5C
2025-07-28T06:27:28,993650150+02:00;$GPGGA,042728.80,5225.510892,N,01046.898914,E,1,10,0.5,63.0,M,46.0,M,,*5D
2025-07-28T06:27:29,202743305+02:00;$GPGGA,042729.00,5225.511001,N,01046.898718,E,1,10,0.5,62.9,M,46.0,M,,*5D
2025-07-28T06:27:29,393616132+02:00;$GPGGA,042729.20,5225.511267,N,01046.898460,E,1,10,0.5,62.8,M,46.0,M,,*50
2025-07-28T06:27:29,593177099+02:00;$GPGGA,042729.40,5225.511371,N,01046.898254,E,1,10,0.5,62.8,M,46.0,M,,*51
2025-07-28T06:27:29,788413453+02:00;$GPGGA,042729.60,5225.511526,N,01046.897981,E,1,10,0.5,62.8,M,46.0,M,,*5B
2025-07-28T06:27:29,988480132+02:00;$GPGGA,042729.80,5225.511616,N,01046.897764,E,1,10,0.5,62.9,M,46.0,M,,*51
2025-07-28T06:27:30,202277776+02:00;$GPGGA,042730.00,5225.511728,N,01046.897520,E,1,10,0.5,62.9,M,46.0,M,,*5F
2025-07-28T06:27:30,393817740+02:00;$GPGGA,042730.20,5225.511889,N,01046.897403,E,1,10,0.5,63.3,M,46.0,M,,*52
2025-07-28T06:27:30,592514942+02:00;$GPGGA,042730.40,5225.511966,N,01046.897204,E,1,10,0.5,63.3,M,46.0,M,,*55
2025-07-28T06:27:30,791881330+02:00;$GPGGA,042730.60,5225.512073,N,01046.897029,E,1,10,0.5,63.2,M,46.0,M,,*55
2025-07-28T06:27:31,000011223+02:00;$GPGGA,042730.80,5225.512183,N,01046.896854,E,1,10,0.5,63.2,M,46.0,M,,*56
2025-07-28T06:27:31,208221701+02:00;$GPGGA,042731.00,5225.512336,N,01046.896572,E,1,10,0.5,63.2,M,46.0,M,,*5A
2025-07-28T06:27:31,394036949+02:00;$GPGGA,042731.20,5225.512487,N,01046.896464,E,1,10,0.5,63.3,M,46.0,M,,*52
2025-07-28T06:27:31,595088492+02:00;$GPGGA,042731.40,5225.512588,N,01046.896298,E,1,10,0.5,63.3,M,46.0,M,,*5F
2025-07-28T06:27:31,789860770+02:00;$GPGGA,042731.60,5225.512738,N,01046.896093,E,1,10,0.5,63.3,M,46.0,M,,*5D
2025-07-28T06:27:31,988228116+02:00;$GPGGA,042731.80,5225.512884,N,01046.895888,E,1,10,0.5,63.4,M,46.0,M,,*5D
2025-07-28T06:27:32,205104907+02:00;$GPGGA,042732.00,5225.513034,N,01046.895665,E,1,10,0.5,63.4,M,46.0,M,,*59
2025-07-28T06:27:32,396593858+02:00;$GPGGA,042732.20,5225.513262,N,01046.895539,E,1,10,0.5,63.3,M,46.0,M,,*57
2025-07-28T06:27:32,593585038+02:00;$GPGGA,042732.40,5225.513397,N,01046.895372,E,1,10,0.5,63.3,M,46.0,M,,*53
2025-07-28T06:27:32,793954595+02:00;$GPGGA,042732.60,5225.513557,N,01046.895245,E,1,10,0.5,63.4,M,46.0,M,,*59
2025-07-28T06:27:32,992116226+02:00;$GPGGA,042732.80,5225.513709,N,01046.895144,E,1,10,0.5,63.4,M,46.0,M,,*5C
2025-07-28T06:27:33,205848167+02:00;$GPGGA,042733.00,5225.513835,N,01046.895039,E,1,10,0.5,63.4,M,46.0,M,,*5E
2025-07-28T06:27:33,396381985+02:00;$GPGGA,042733.20,5225.514032,N,01046.894887,E,1,10,0.5,63.4,M,46.0,M,,*58
2025-07-28T06:27:33,595154331+02:00;$GPGGA,042733.40,5225.514175,N,01046.894714,E,1,10,0.5,63.4,M,46.0,M,,*59
2025-07-28T06:27:33,800045543+02:00;$GPGGA,042733.60,5225.514280,N,01046.894639,E,1,10,0.5,63.4,M,46.0,M,,*5C
2025-07-28T06:27:33,991744562+02:00;$GPGGA,042733.80,5225.514314,N,01046.894763,E,1,10,0.5,63.6,M,46.0,M,,*52
2025-07-28T06:27:34,204780916+02:00;$GPGGA,042734.00,5225.514389,N,01046.894785,E,1,10,0.5,63.5,M,46.0,M,,*52
2025-07-28T06:27:34,389426995+02:00;$GPGGA,042734.20,5225.514359,N,01046.894812,E,1,10,0.5,63.5,M,46.0,M,,*5C
2025-07-28T06:27:34,589151145+02:00;$GPGGA,042734.40,5225.514436,N,01046.894764,E,1,10,0.5,63.5,M,46.0,M,,*5A
2025-07-28T06:27:34,787869533+02:00;$GPGGA,042734.60,5225.514497,N,01046.894699,E,1,10,0.5,63.5,M,46.0,M,,*50
2025-07-28T06:27:34,993145838+02:00;$GPGGA,042734.80,5225.514573,N,01046.894654,E,1,10,0.5,63.5,M,46.0,M,,*54
2025-07-28T06:27:35,200849547+02:00;$GPGGA,042735.00,5225.514624,N,01046.894650,E,1,10,0.5,63.4,M,46.0,M,,*59
2025-07-28T06:27:35,391893462+02:00;$GPGGA,042735.20,5225.514762,N,01046.894417,E,1,10,0.5,63.3,M,46.0,M,,*5E
2025-07-28T06:27:35,590038451+02:00;$GPGGA,042735.40,5225.514888,N,01046.894351,E,1,10,0.5,63.3,M,46.0,M,,*56
2025-07-28T06:27:35,787715843+02:00;$GPGGA,042735.60,5225.515006,N,01046.894310,E,1,10,0.5,63.5,M,46.0,M,,*58
2025-07-28T06:27:35,988389237+02:00;$GPGGA,042735.80,5225.515072,N,01046.894325,E,1,10,0.5,63.4,M,46.0,M,,*52
2025-07-28T06:27:36,199480090+02:00;$GPGGA,042736.00,5225.515167,N,01046.894286,E,1,10,0.5,63.3,M,46.0,M,,*53
2025-07-28T06:27:36,388948749+02:00;$GPGGA,042736.20,5225.515246,N,01046.894185,E,1,10,0.5,63.2,M,46.0,M,,*50
2025-07-28T06:27:36,590447792+02:00;$GPGGA,042736.40,5225.515365,N,01046.894191,E,1,10,0.5,63.2,M,46.0,M,,*53
2025-07-28T06:27:36,787630223+02:00;$GPGGA,042736.60,5225.515440,N,01046.894141,E,1,10,0.5,63.2,M,46.0,M,,*5C
2025-07-28T06:27:36,990592672+02:00;$GPGGA,042736.80,5225.515526,N,01046.894169,E,1,10,0.5,63.3,M,46.0,M,,*58
2025-07-28T06:27:37,200567512+02:00;$GPGGA,042737.00,5225.515575,N,01046.894115,E,1,10,0.5,63.4,M,46.0,M,,*5B
2025-07-28T06:27:37,388372010+02:00;$GPGGA,042737.20,5225.515658,N,01046.894136,E,1,10,0.5,63.5,M,46.0,M,,*55
2025-07-28T06:27:37,590657273+02:00;$GPGGA,042737.40,5225.515739,N,01046.894135,E,1,10,0.5,63.5,M,46.0,M,,*56
2025-07-28T06:27:37,787866331+02:00;$GPGGA,042737.60,5225.515790,N,01046.894165,E,1,10,0.5,63.4,M,46.0,M,,*53
2025-07-28T06:27:37,988216142+02:00;$GPGGA,042737.80,5225.515893,N,01046.894194,E,1,10,0.5,63.7,M,46.0,M,,*5C
2025-07-28T06:27:38,201424128+02:00;$GPGGA,042738.00,5225.515992,N,01046.894200,E,1,10,0.5,63.8,M,46.0,M,,*5A
2025-07-28T06:27:38,392384260+02:00;$GPGGA,042738.20,5225.516023,N,01046.894087,E,1,10,0.5,63.9,M,46.0,M,,*54
2025-07-28T06:27:38,592697011+02:00;$GPGGA,042738.40,5225.516108,N,01046.894074,E,1,10,0.5,64.0,M,46.0,M,,*58
2025-07-28T06:27:38,788511054+02:00;$GPGGA,042738.60,5225.516189,N,01046.894076,E,1,10,0.5,64.0,M,46.0,M,,*51
2025-07-28T06:27:38,989342000+02:00;$GPGGA,042738.80,5225.516312,N,01046.894079,E,1,10,0.5,64.1,M,46.0,M,,*51
2025-07-28T06:27:39,202502142+02:00;$GPGGA,042739.00,5225.516364,N,01046.894017,E,1,10,0.5,63.6,M,46.0,M,,*51
2025-07-28T06:27:39,388240167+02:00;$GPGGA,042739.20,5225.516396,N,01046.893954,E,1,10,0.5,63.7,M,46.0,M,,*56
2025-07-28T06:27:39,588229943+02:00;$GPGGA,042739.40,5225.516509,N,01046.893971,E,1,10,0.5,63.6,M,46.0,M,,*56
2025-07-28T06:27:39,787064502+02:00;$GPGGA,042739.60,5225.516590,N,01046.893955,E,1,10,0.5,63.5,M,46.0,M,,*51
2025-07-28T06:27:39,986709221+02:00;$GPGGA,042739.80,5225.516683,N,01046.893933,E,1,10,0.5,63.6,M,46.0,M,,*5D
2025-07-28T06:27:40,202464943+02:00;$GPGGA,042740.00,5225.516736,N,01046.893919,E,1,10,0.5,63.6,M,46.0,M,,*5C
2025-07-28T06:27:40,389497077+02:00;$GPGGA,042740.20,5225.516990,N,01046.893836,E,1,10,0.5,63.4,M,46.0,M,,*52
2025-07-28T06:27:40,591979735+02:00;$GPGGA,042740.40,5225.517094,N,01046.893855,E,1,10,0.5,63.4,M,46.0,M,,*5D
2025-07-28T06:27:40,788448402+02:00;$GPGGA,042740.60,5225.517204,N,01046.893822,E,1,10,0.5,63.6,M,46.0,M,,*56
2025-07-28T06:27:40,988976598+02:00;$GPGGA,042740.80,5225.517248,N,01046.893799,E,1,10,0.5,63.5,M,46.0,M,,*5C
2025-07-28T06:27:41,200251021+02:00;$GPGGA,042741.00,5225.517265,N,01046.893802,E,1,10,0.5,63.4,M,46.0,M,,*56
2025-07-28T06:27:41,388368317+02:00;$GPGGA,042741.20,5225.517381,N,01046.893705,E,1,10,0.5,63.4,M,46.0,M,,*57
2025-07-28T06:27:41,588160474+02:00;$GPGGA,042741.40,5225.517388,N,01046.893702,E,1,10,0.5,63.4,M,46.0,M,,*5F
2025-07-28T06:27:41,787707103+02:00;$GPGGA,042741.60,5225.517422,N,01046.893692,E,1,10,0.5,63.5,M,46.0,M,,*53
2025-07-28T06:27:41,988632393+02:00;$GPGGA,042741.80,5225.517503,N,01046.893698,E,1,10,0.5,63.5,M,46.0,M,,*55
2025-07-28T06:27:42,201342028+02:00;$GPGGA,042742.00,5225.517530,N,01046.893740,E,1,10,0.5,63.7,M,46.0,M,,*58
2025-07-28T06:27:42,388784218+02:00;$GPGGA,042742.20,5225.517651,N,01046.893777,E,1,10,0.5,63.7,M,46.0,M,,*5A
2025-07-28T06:27:42,589233303+02:00;$GPGGA,042742.40,5225.517726,N,01046.893811,E,1,10,0.5,63.7,M,46.0,M,,*52
2025-07-28T06:27:42,788241736+02:00;$GPGGA,042742.60,5225.517764,N,01046.893815,E,1,10,0.5,63.8,M,46.0,M,,*5D
2025-07-28T06:27:42,987309438+02:00;$GPGGA,042742.80,5225.517808,N,01046.893764,E,1,10,0.5,63.7,M,46.0,M,,*50
2025-07-28T06:27:43,200854802+02:00;$GPGGA,042743.00,5225.517881,N,01046.893754,E,1,10,0.5,63.7,M,46.0,M,,*5B
2025-07-28T06:27:43,389117136+02:00;$GPGGA,042743.20,5225.517990,N,01046.893841,E,1,10,0.5,63.3,M,46.0,M,,*57
2025-07-28T06:27:43,590321238+02:00;$GPGGA,042743.40,5225.518069,N,01046.893845,E,1,10,0.5,63.5,M,46.0,M,,*53
2025-07-28T06:27:43,788202713+02:00;$GPGGA,042743.60,5225.518159,N,01046.893835,E,1,10,0.5,63.5,M,46.0,M,,*54
2025-07-28T06:27:43,987990837+02:00;$GPGGA,042743.80,5225.518287,N,01046.893843,E,1,10,0.5,63.6,M,46.0,M,,*58
2025-07-28T06:27:44,201487044+02:00;$GPGGA,042744.00,5225.518331,N,01046.893866,E,1,10,0.5,63.7,M,46.0,M,,*5D
2025-07-28T06:27:44,388098242+02:00;$GPGGA,042744.20,5225.518411,N,01046.893950,E,1,10,0.5,63.8,M,46.0,M,,*51
2025-07-28T06:27:44,587992649+02:00;$GPGGA,042744.40,5225.518498,N,01046.894005,E,1,09,0.5,63.9,M,46.0,M,,*51
2025-07-28T06:27:44,786931251+02:00;$GPGGA,042744.60,5225.518573,N,01046.894068,E,1,09,0.5,64.1,M,46.0,M,,*53
2025-07-28T06:27:44,987124471+02:00;$GPGGA,042744.80,5225.518655,N,01046.894063,E,1,09,0.5,64.1,M,46.0,M,,*51
2025-07-28T06:27:45,200767028+02:00;$GPGGA,042745.00,5225.518743,N,01046.894043,E,1,09,0.5,64.2,M,46.0,M,,*5F
2025-07-28T06:27:45,393520613+02:00;$GPGGA,042745.20,5225.519047,N,01046.894000,E,1,10,0.5,63.9,M,46.0,M,,*5C
2025-07-28T06:27:45,590652032+02:00;$GPGGA,042745.40,5225.519155,N,01046.893949,E,1,10,0.5,63.9,M,46.0,M,,*5B
2025-07-28T06:27:45,787985422+02:00;$GPGGA,042745.60,5225.519155,N,01046.893886,E,1,10,0.5,63.6,M,46.0,M,,*54
2025-07-28T06:27:45,986659647+02:00;$GPGGA,042745.80,5225.519168,N,01046.893822,E,1,10,0.5,63.6,M,46.0,M,,*5A
2025-07-28T06:27:46,201660192+02:00;$GPGGA,042746.00,5225.519258,N,01046.893772,E,1,10,0.5,63.6,M,46.0,M,,*5B
2025-07-28T06:27:46,392615043+02:00;$GPGGA,042746.20,5225.519279,N,01046.893695,E,1,10,0.5,63.5,M,46.0,M,,*51
2025-07-28T06:27:46,595156203+02:00;$GPGGA,042746.40,5225.519271,N,01046.893668,E,1,10,0.5,63.3,M,46.0,M,,*5B
2025-07-28T06:27:46,788066988+02:00;$GPGGA,042746.60,5225.519304,N,01046.893634,E,1,10,0.5,63.2,M,46.0,M,,*52
2025-07-28T06:27:46,988098688+02:00;$GPGGA,042746.80,5225.519335,N,01046.893602,E,1,10,0.5,63.1,M,46.0,M,,*58
2025-07-28T06:27:47,204108899+02:00;$GPGGA,042747.00,5225.519401,N,01046.893571,E,1,10,0.5,63.2,M,46.0,M,,*55
2025-07-28T06:27:47,389511563+02:00;$GPGGA,042747.20,5225.519530,N,01046.893589,E,1,10,0.5,63.4,M,46.0,M,,*55
2025-07-28T06:27:47,591521087+02:00;$GPGGA,042747.40,5225.519613,N,01046.893483,E,1,10,0.5,63.3,M,46.0,M,,*5D
2025-07-28T06:27:47,788942166+02:00;$GPGGA,042747.60,5225.519699,N,01046.893384,E,1,10,0.5,63.0,M,46.0,M,,*5E
2025-07-28T06:27:47,988240547+02:00;$GPGGA,042747.80,5225.519771,N,01046.893304,E,1,10,0.5,62.9,M,46.0,M,,*57
2025-07-28T06:27:48,202548737+02:00;$GPGGA,042748.00,5225.519819,N,01046.893312,E,1,10,0.5,62.9,M,46.0,M,,*56
2025-07-28T06:27:48,391698261+02:00;$GPGGA,042748.20,5225.519815,N,01046.893278,E,1,10,0.5,63.0,M,46.0,M,,*5D
2025-07-28T06:27:48,589104650+02:00;$GPGGA,042748.40,5225.519941,N,01046.893244,E,1,10,0.5,62.9,M,46.0,M,,*5C
2025-07-28T06:27:48,787455388+02:00;$GPGGA,042748.60,5225.520008,N,01046.893164,E,1,10,0.5,62.8,M,46.0,M,,*50
2025-07-28T06:27:48,987015554+02:00;$GPGGA,042748.80,5225.520120,N,01046.893029,E,1,10,0.5,62.7,M,46.0,M,,*52
2025-07-28T06:27:49,200881237+02:00;$GPGGA,042749.00,5225.520233,N,01046.893105,E,1,10,0.5,62.7,M,46.0,M,,*55
2025-07-28T06:27:49,393271971+02:00;$GPGGA,042749.20,5225.520392,N,01046.893084,E,1,10,0.5,62.5,M,46.0,M,,*57
2025-07-28T06:27:49,588282288+02:00;$GPGGA,042749.40,5225.520536,N,01046.893025,E,1,10,0.5,62.7,M,46.0,M,,*50
2025-07-28T06:27:49,789763441+02:00;$GPGGA,042749.60,5225.520641,N,01046.892942,E,1,10,0.5,62.8,M,46.0,M,,*57
2025-07-28T06:27:49,988604818+02:00;$GPGGA,042749.80,5225.520863,N,01046.892840,E,1,10,0.5,63.0,M,46.0,M,,*5D
2025-07-28T06:27:50,202198730+02:00;$GPGGA,042750.00,5225.521002,N,01046.892928,E,1,10,0.5,63.2,M,46.0,M,,*5E
2025-07-28T06:27:50,390082116+02:00;$GPGGA,042750.20,5225.521061,N,01046.892872,E,1,10,0.5,62.9,M,46.0,M,,*5D
2025-07-28T06:27:50,590757974+02:00;$GPGGA,042750.40,5225.521147,N,01046.892838,E,1,10,0.5,63.0,M,46.0,M,,*58
2025-07-28T06:27:50,789081669+02:00;$GPGGA,042750.60,5225.521234,N,01046.892762,E,1,10,0.5,62.9,M,46.0,M,,*55
2025-07-28T06:27:50,990132124+02:00;$GPGGA,042750.80,5225.521325,N,01046.892693,E,1,10,0.5,62.9,M,46.0,M,,*55
2025-07-28T06:27:51,199958023+02:00;$GPGGA,042751.00,5225.521340,N,01046.892715,E,1,10,0.5,63.0,M,46.0,M,,*58
2025-07-28T06:27:51,389768731+02:00;$GPGGA,042751.20,5225.521560,N,01046.892548,E,1,10,0.5,63.1,M,46.0,M,,*55
2025-07-28T06:27:51,590010212+02:00;$GPGGA,042751.40,5225.521649,N,01046.892508,E,1,10,0.5,63.3,M,46.0,M,,*5D
2025-07-28T06:27:51,792369818+02:00;$GPGGA,042751.60,5225.521736,N,01046.892478,E,1,10,0.5,63.4,M,46.0,M,,*57
2025-07-28T06:27:51,991885276+02:00;$GPGGA,042751.80,5225.521849,N,01046.892488,E,1,10,0.5,63.4,M,46.0,M,,*51
2025-07-28T06:27:52,204892123+02:00;$GPGGA,042752.00,5225.521966,N,01046.892456,E,1,10,0.5,63.4,M,46.0,M,,*55
2025-07-28T06:27:52,388996134+02:00;$GPGGA,042752.20,5225.522076,N,01046.892358,E,1,10,0.5,63.2,M,46.0,M,,*53
2025-07-28T06:27:52,589813766+02:00;$GPGGA,042752.40,5225.522242,N,01046.892298,E,1,10,0.5,63.1,M,46.0,M,,*5E
2025-07-28T06:27:52,790749074+02:00;$GPGGA,042752.60,5225.522388,N,01046.892264,E,1,10,0.5,63.1,M,46.0,M,,*58
2025-07-28T06:27:52,989374686+02:00;$GPGGA,042752.80,5225.522386,N,01046.892317,E,1,10,0.5,63.2,M,46.0,M,,*5E
2025-07-28T06:27:53,205922485+02:00;$GPGGA,042753.00,5225.522462,N,01046.892334,E,1,10,0.5,63.2,M,46.0,M,,*5B
2025-07-28T06:27:53,392817391+02:00;$GPGGA,042753.20,5225.522483,N,01046.892308,E,1,10,0.5,63.4,M,46.0,M,,*5F
2025-07-28T06:27:53,592261802+02:00;$GPGGA,042753.40,5225.522579,N,01046.892310,E,1,10,0.5,63.4,M,46.0,M,,*54
2025-07-28T06:27:53,792466959+02:00;$GPGGA,042753.60,5225.522700,N,01046.892313,E,1,10,0.5,63.5,M,46.0,M,,*58
2025-07-28T06:27:53,990790430+02:00;$GPGGA,042753.80,5225.522821,N,01046.892323,E,1,10,0.5,63.4,M,46.0,M,,*58
2025-07-28T06:27:54,204245961+02:00;$GPGGA,042754.00,5225.523015,N,01046.892358,E,1,10,0.5,63.5,M,46.0,M,,*54
2025-07-28T06:27:54,396172362+02:00;$GPGGA,042754.20,5225.523144,N,01046.892433,E,1,10,0.5,63.8,M,46.0,M,,*54
2025-07-28T06:27:54,589626784+02:00;$GPGGA,042754.40,5225.523150,N,01046.892407,E,1,10,0.5,63.7,M,46.0,M,,*5F
2025-07-28T06:27:54,792252912+02:00;$GPGGA,042754.60,5225.523266,N,01046.892460,E,1,10,0.5,63.6,M,46.0,M,,*5B
2025-07-28T06:27:54,989609025+02:00;$GPGGA,042754.80,5225.523363,N,01046.892481,E,1,10,0.5,63.7,M,46.0,M,,*5F
2025-07-28T06:27:55,203303011+02:00;$GPGGA,042755.00,5225.523491,N,01046.892506,E,1,10,0.5,63.7,M,46.0,M,,*52
2025-07-28T06:27:55,393950217+02:00;$GPGGA,042755.20,5225.523576,N,01046.892410,E,1,10,0.5,63.4,M,46.0,M,,*5D
2025-07-28T06:27:55,595984512+02:00;$GPGGA,042755.40,5225.523694,N,01046.892451,E,1,10,0.5,63.4,M,46.0,M,,*51
2025-07-28T06:27:55,791866785+02:00;$GPGGA,042755.60,5225.523793,N,01046.892494,E,1,10,0.5,63.5,M,46.0,M,,*5D
2025-07-28T06:27:55,991840976+02:00;$GPGGA,042755.80,5225.523947,N,01046.892534,E,1,10,0.5,63.4,M,46.0,M,,*5E
2025-07-28T06:27:56,206230198+02:00;$GPGGA,042756.00,5225.524059,N,01046.892664,E,1,10,0.5,63.4,M,46.0,M,,*52
2025-07-28T06:27:56,390244951+02:00;$GPGGA,042756.20,5225.524164,N,01046.892770,E,1,10,0.5,63.1,M,46.0,M,,*5E
2025-07-28T06:27:56,594199849+02:00;$GPGGA,042756.40,5225.524261,N,01046.892859,E,1,10,0.5,63.1,M,46.0,M,,*5A
2025-07-28T06:27:56,791055113+02:00;$GPGGA,042756.60,5225.524342,N,01046.892918,E,1,10,0.5,63.3,M,46.0,M,,*5E
2025-07-28T06:27:56,989492802+02:00;$GPGGA,042756.80,5225.524403,N,01046.892927,E,1,10,0.5,63.2,M,46.0,M,,*5F
2025-07-28T06:27:57,204726490+02:00;$GPGGA,042757.00,5225.524411,N,01046.892945,E,1,10,0.5,63.2,M,46.0,M,,*51
2025-07-28T06:27:57,389393467+02:00;$GPGGA,042757.20,5225.524495,N,01046.893060,E,1,10,0.5,63.2,M,46.0,M,,*50
2025-07-28T06:27:57,593273509+02:00;$GPGGA,042757.40,5225.524497,N,01046.893105,E,1,10,0.5,63.2,M,46.0,M,,*56
2025-07-28T06:27:57,789453796+02:00;$GPGGA,042757.60,5225.524540,N,01046.893097,E,1,10,0.5,63.3,M,46.0,M,,*54
2025-07-28T06:27:57,989619653+02:00;$GPGGA,042757.80,5225.524567,N,01046.893141,E,1,10,0.5,63.5,M,46.0,M,,*53
2025-07-28T06:27:58,203145591+02:00;$GPGGA,042758.00,5225.524620,N,01046.893210,E,1,10,0.5,63.6,M,46.0,M,,*50
2025-07-28T06:27:58,393134813+02:00;$GPGGA,042758.20,5225.524685,N,01046.893287,E,1,10,0.5,63.4,M,46.0,M,,*51
2025-07-28T06:27:58,590361153+02:00;$GPGGA,042758.40,5225.524690,N,01046.893255,E,1,10,0.5,63.3,M,46.0,M,,*5B
2025-07-28T06:27:58,790347889+02:00;$GPGGA,042758.60,5225.524750,N,01046.893340,E,1,10,0.5,63.4,M,46.0,M,,*56
2025-07-28T06:27:58,989327359+02:00;$GPGGA,042758.80,5225.524739,N,01046.893334,E,1,10,0.5,63.5,M,46.0,M,,*55
2025-07-28T06:27:59,226641013+02:00;$GPGGA,042759.00,5225.524750,N,01046.893353,E,1,10,0.5,63.5,M,46.0,M,,*52
2025-07-28T06:27:59,390298848+02:00;$GPGGA,042759.20,5225.524869,N,01046.893418,E,1,10,0.5,63.5,M,46.0,M,,*5D
2025-07-28T06:27:59,590673494+02:00;$GPGGA,042759.40,5225.524927,N,01046.893465,E,1,10,0.5,63.6,M,46.0,M,,*59
2025-07-28T06:27:59,790206329+02:00;$GPGGA,042759.60,5225.524967,N,01046.893566,E,1,10,0.5,63.5,M,46.0,M,,*5E
2025-07-28T06:28:00,157792370+02:00;$GPGGA,042759.80,5225.525037,N,01046.893607,E,1,10,0.5,63.4,M,46.0,M,,*58
2025-07-28T06:28:00,201467457+02:00;$GPGGA,042800.00,5225.525096,N,01046.893653,E,1,10,0.5,63.5,M,46.0,M,,*58
2025-07-28T06:28:00,388612307+02:00;$GPGGA,042800.20,5225.525110,N,01046.893599,E,1,10,0.5,63.2,M,46.0,M,,*57
2025-07-28T06:28:00,589363245+02:00;$GPGGA,042800.40,5225.525138,N,01046.893662,E,1,08,0.5,63.2,M,46.0,M,,*55
2025-07-28T06:28:00,787794502+02:00;$GPGGA,042800.60,5225.525173,N,01046.893701,E,1,08,0.5,63.2,M,46.0,M,,*5C
2025-07-28T06:28:00,988950183+02:00;$GPGGA,042800.80,5225.525194,N,01046.893720,E,1,08,0.5,63.3,M,46.0,M,,*59
2025-07-28T06:28:01,203602503+02:00;$GPGGA,042801.00,5225.525263,N,01046.893793,E,1,08,0.5,63.1,M,46.0,M,,*51
2025-07-28T06:28:01,390612011+02:00;$GPGGA,042801.20,5225.525363,N,01046.893804,E,1,08,0.5,63.0,M,46.0,M,,*52
2025-07-28T06:28:01,590495601+02:00;$GPGGA,042801.40,5225.525433,N,01046.893850,E,1,08,0.6,62.8,M,46.0,M,,*5D
2025-07-28T06:28:01,789967920+02:00;$GPGGA,042801.60,5225.525495,N,01046.893881,E,1,08,0.6,62.7,M,46.0,M,,*50
2025-07-28T06:28:01,989720457+02:00;$GPGGA,042801.80,5225.525530,N,01046.893906,E,1,08,0.6,62.6,M,46.0,M,,*5F
2025-07-28T06:28:02,203791920+02:00;$GPGGA,042802.00,5225.525552,N,01046.893951,E,1,08,0.6,62.6,M,46.0,M,,*52
2025-07-28T06:28:02,391224190+02:00;$GPGGA,042802.20,5225.525637,N,01046.894070,E,1,08,0.6,62.6,M,46.0,M,,*5D
2025-07-28T06:28:02,590566127+02:00;$GPGGA,042802.40,5225.525730,N,01046.894142,E,1,08,0.6,62.7,M,46.0,M,,*5C
2025-07-28T06:28:02,790112180+02:00;$GPGGA,042802.60,5225.525766,N,01046.894191,E,1,08,0.6,62.7,M,46.0,M,,*53
2025-07-28T06:28:02,989441701+02:00;$GPGGA,042802.80,5225.525827,N,01046.894196,E,1,08,0.6,62.7,M,46.0,M,,*50
2025-07-28T06:28:03,201776963+02:00;$GPGGA,042803.00,5225.525882,N,01046.894272,E,1,08,0.6,62.7,M,46.0,M,,*5F
2025-07-28T06:28:03,390588023+02:00;$GPGGA,042803.20,5225.525906,N,01046.894367,E,1,08,0.6,62.6,M,46.0,M,,*54
2025-07-28T06:28:03,593268428+02:00;$GPGGA,042803.40,5225.525966,N,01046.894422,E,1,08,0.6,62.6,M,46.0,M,,*52
2025-07-28T06:28:03,790382533+02:00;$GPGGA,042803.60,5225.526034,N,01046.894466,E,1,08,0.6,62.5,M,46.0,M,,*5E
2025-07-28T06:28:03,989655600+02:00;$GPGGA,042803.80,5225.526134,N,01046.894540,E,1,08,0.6,62.4,M,46.0,M,,*55
2025-07-28T06:28:04,205064697+02:00;$GPGGA,042804.00,5225.526221,N,01046.894624,E,1,08,0.6,62.4,M,46.0,M,,*5C
2025-07-28T06:28:04,390311347+02:00;$GPGGA,042804.20,5225.526207,N,01046.894753,E,1,08,0.6,62.4,M,46.0,M,,*5B
2025-07-28T06:28:04,591365258+02:00;$GPGGA,042804.40,5225.526282,N,01046.894833,E,1,08,0.6,62.6,M,46.0,M,,*5B
2025-07-28T06:28:04,790436834+02:00;$GPGGA,042804.60,5225.526350,N,01046.894888,E,1,08,0.6,62.5,M,46.0,M,,*54
2025-07-28T06:28:04,990054638+02:00;$GPGGA,042804.80,5225.526442,N,01046.894990,E,1,08,0.6,62.5,M,46.0,M,,*56
2025-07-28T06:28:05,210494911+02:00;$GPGGA,042805.00,5225.526507,N,01046.895070,E,1,08,0.6,62.5,M,46.0,M,,*59
2025-07-28T06:28:05,393466524+02:00;$GPGGA,042805.20,5225.526667,N,01046.895157,E,1,08,0.6,62.4,M,46.0,M,,*5B
2025-07-28T06:28:05,590484780+02:00;$GPGGA,042805.40,5225.526783,N,01046.895277,E,1,08,0.6,62.3,M,46.0,M,,*50
2025-07-28T06:28:05,791014161+02:00;$GPGGA,042805.60,5225.526915,N,01046.895364,E,1,08,0.6,62.3,M,46.0,M,,*50
2025-07-28T06:28:05,990477550+02:00;$GPGGA,042805.80,5225.527023,N,01046.895497,E,1,08,0.6,62.3,M,46.0,M,,*58
2025-07-28T06:28:06,204441578+02:00;$GPGGA,042806.00,5225.527102,N,01046.895621,E,1,08,0.6,62.2,M,46.0,M,,*5F
2025-07-28T06:28:06,390567929+02:00;$GPGGA,042806.20,5225.527248,N,01046.895759,E,1,08,0.6,62.1,M,46.0,M,,*5D
2025-07-28T06:28:06,589961168+02:00;$GPGGA,042806.40,5225.527282,N,01046.895849,E,1,08,0.6,62.2,M,46.0,M,,*50
2025-07-28T06:28:06,793470742+02:00;$GPGGA,042806.60,5225.527334,N,01046.895921,E,1,08,0.6,62.3,M,46.0,M,,*50
2025-07-28T06:28:06,990280978+02:00;$GPGGA,042806.80,5225.527410,N,01046.895958,E,1,08,0.6,62.1,M,46.0,M,,*53
2025-07-28T06:28:07,202362744+02:00;$GPGGA,042807.00,5225.527514,N,01046.896024,E,1,08,0.6,62.0,M,46.0,M,,*5F
2025-07-28T06:28:07,390210574+02:00;$GPGGA,042807.20,5225.527643,N,01046.896170,E,1,08,0.6,62.1,M,46.0,M,,*5D
2025-07-28T06:28:07,592357232+02:00;$GPGGA,042807.40,5225.527712,N,01046.896240,E,1,08,0.6,62.1,M,46.0,M,,*5E
2025-07-28T06:28:07,790667005+02:00;$GPGGA,042807.60,5225.527892,N,01046.896386,E,1,08,0.6,61.8,M,46.0,M,,*5A
2025-07-28T06:28:07,989526016+02:00;$GPGGA,042807.80,5225.527984,N,01046.896430,E,1,08,0.6,61.7,M,46.0,M,,*57
2025-07-28T06:28:08,201352685+02:00;$GPGGA,042808.00,5225.528085,N,01046.896491,E,1,08,0.6,61.6,M,46.0,M,,*5D
2025-07-28T06:28:08,390111323+02:00;$GPGGA,042808.20,5225.528070,N,01046.896490,E,1,08,0.6,61.8,M,46.0,M,,*5A
2025-07-28T06:28:08,590316673+02:00;$GPGGA,042808.40,5225.528106,N,01046.896574,E,1,08,0.6,61.9,M,46.0,M,,*56
2025-07-28T06:28:08,790419100+02:00;$GPGGA,042808.60,5225.528174,N,01046.896647,E,1,08,0.6,61.9,M,46.0,M,,*52
2025-07-28T06:28:08,990636675+02:00;$GPGGA,042808.80,5225.528305,N,01046.896731,E,1,08,0.6,61.8,M,46.0,M,,*59
2025-07-28T06:28:09,204420142+02:00;$GPGGA,042809.00,5225.528419,N,01046.896796,E,1,08,0.6,61.9,M,46.0,M,,*56
2025-07-28T06:28:09,393455543+02:00;$GPGGA,042809.20,5225.528566,N,01046.896934,E,1,08,0.6,61.8,M,46.0,M,,*5A
2025-07-28T06:28:09,589932979+02:00;$GPGGA,042809.40,5225.528662,N,01046.897011,E,1,08,0.6,61.9,M,46.0,M,,*55
2025-07-28T06:28:09,789660522+02:00;$GPGGA,042809.60,5225.528749,N,01046.897083,E,1,08,0.6,61.9,M,46.0,M,,*54
2025-07-28T06:28:09,989506764+02:00;$GPGGA,042809.80,5225.528884,N,01046.897144,E,1,08,0.6,61.7,M,46.0,M,,*50
2025-07-28T06:28:10,203410915+02:00;$GPGGA,042810.00,5225.528946,N,01046.897248,E,1,08,0.6,61.8,M,46.0,M,,*5F
2025-07-28T06:28:10,398197659+02:00;$GPGGA,042810.20,5225.529047,N,01046.897348,E,1,08,0.6,61.9,M,46.0,M,,*54
2025-07-28T06:28:10,593082364+02:00;$GPGGA,042810.40,5225.529160,N,01046.897438,E,1,08,0.6,61.9,M,46.0,M,,*56
2025-07-28T06:28:10,790462959+02:00;$GPGGA,042810.60,5225.529316,N,01046.897531,E,1,08,0.6,61.9,M,46.0,M,,*5F
2025-07-28T06:28:10,992964083+02:00;$GPGGA,042810.80,5225.529430,N,01046.897585,E,1,08,0.6,62.0,M,46.0,M,,*57
2025-07-28T06:28:11,204638226+02:00;$GPGGA,042811.00,5225.529529,N,01046.897705,E,1,08,0.6,62.0,M,46.0,M,,*5D
2025-07-28T06:28:11,389993238+02:00;$GPGGA,042811.20,5225.529627,N,01046.897736,E,1,08,0.6,61.9,M,46.0,M,,*58
2025-07-28T06:28:11,590071855+02:00;$GPGGA,042811.40,5225.529762,N,01046.897854,E,1,08,0.6,61.9,M,46.0,M,,*55
2025-07-28T06:28:11,791820746+02:00;$GPGGA,042811.60,5225.529869,N,01046.897964,E,1,08,0.6,62.0,M,46.0,M,,*5B
2025-07-28T06:28:11,989915235+02:00;$GPGGA,042811.80,5225.529983,N,01046.898108,E,1,08,0.6,61.9,M,46.0,M,,*57
2025-07-28T06:28:12,204082867+02:00;$GPGGA,042812.00,5225.530100,N,01046.898262,E,1,08,0.6,61.9,M,46.0,M,,*58
2025-07-28T06:28:12,391163775+02:00;$GPGGA,042812.20,5225.530110,N,01046.898401,E,1,08,0.6,61.8,M,46.0,M,,*59
2025-07-28T06:28:12,590714245+02:00;$GPGGA,042812.40,5225.530174,N,01046.898512,E,1,08,0.6,61.8,M,46.0,M,,*5E
2025-07-28T06:28:12,790407225+02:00;$GPGGA,042812.60,5225.530324,N,01046.898744,E,1,08,0.6,61.7,M,46.0,M,,*55
2025-07-28T06:28:12,989393736+02:00;$GPGGA,042812.80,5225.530435,N,01046.898882,E,1,08,0.6,61.5,M,46.0,M,,*5B
2025-07-28T06:28:13,201291516+02:00;$GPGGA,042813.00,5225.530540,N,01046.899048,E,1,08,0.6,61.5,M,46.0,M,,*5E
2025-07-28T06:28:13,389727019+02:00;$GPGGA,042813.20,5225.530583,N,01046.899164,E,1,08,0.6,61.6,M,46.0,M,,*5F
2025-07-28T06:28:13,592074497+02:00;$GPGGA,042813.40,5225.530729,N,01046.899279,E,1,08,0.6,61.6,M,46.0,M,,*54
2025-07-28T06:28:13,789380269+02:00;$GPGGA,042813.60,5225.530853,N,01046.899447,E,1,08,0.6,61.7,M,46.0,M,,*5E
2025-07-28T06:28:13,989618453+02:00;$GPGGA,042813.80,5225.530920,N,01046.899543,E,1,08,0.6,61.6,M,46.0,M,,*51
2025-07-28T06:28:14,202623669+02:00;$GPGGA,042814.00,5225.531020,N,01046.899678,E,1,08,0.6,61.8,M,46.0,M,,*53
2025-07-28T06:28:14,392161839+02:00;$GPGGA,042814.20,5225.531079,N,01046.899809,E,1,08,0.6,61.6,M,46.0,M,,*5B
2025-07-28T06:28:14,592015410+02:00;$GPGGA,042814.40,5225.531192,N,01046.899990,E,1,08,0.6,61.7,M,46.0,M,,*59
2025-07-28T06:28:14,789613403+02:00;$GPGGA,042814.60,5225.531348,N,01046.899966,E,1,08,0.6,61.7,M,46.0,M,,*57
2025-07-28T06:28:14,989626574+02:00;$GPGGA,042814.80,5225.531449,N,01046.900147,E,1,08,0.6,62.0,M,46.0,M,,*51
2025-07-28T06:28:15,202285580+02:00;$GPGGA,042815.00,5225.531497,N,01046.900271,E,1,08,0.6,62.0,M,46.0,M,,*5D
2025-07-28T06:28:15,393212077+02:00;$GPGGA,042815.20,5225.531579,N,01046.900426,E,1,08,0.6,62.0,M,46.0,M,,*5A
2025-07-28T06:28:15,591682314+02:00;$GPGGA,042815.40,5225.531615,N,01046.900569,E,1,08,0.6,61.9,M,46.0,M,,*55
2025-07-28T06:28:15,790321367+02:00;$GPGGA,042815.60,5225.531707,N,01046.900669,E,1,08,0.6,61.8,M,46.0,M,,*57
2025-07-28T06:28:15,990212446+02:00;$GPGGA,042815.80,5225.531829,N,01046.900807,E,1,08,0.6,61.8,M,46.0,M,,*5C
2025-07-28T06:28:16,205644970+02:00;$GPGGA,042816.00,5225.531956,N,01046.900856,E,1,08,0.6,61.9,M,46.0,M,,*5B
2025-07-28T06:28:16,393883718+02:00;$GPGGA,042816.20,5225.531975,N,01046.900897,E,1,08,0.6,62.1,M,46.0,M,,*5E
2025-07-28T06:28:16,595014149+02:00;$GPGGA,042816.40,5225.532072,N,01046.901065,E,1,07,0.6,62.3,M,46.0,M,,*5C
2025-07-28T06:28:16,789844673+02:00;$GPGGA,042816.60,5225.532120,N,01046.901145,E,1,07,0.6,62.3,M,46.0,M,,*5B
2025-07-28T06:28:16,995976838+02:00;$GPGGA,042816.80,5225.532151,N,01046.901199,E,1,07,0.6,62.3,M,46.0,M,,*52
2025-07-28T06:28:17,208822326+02:00;$GPGGA,042817.00,5225.532189,N,01046.901270,E,1,07,0.6,62.4,M,46.0,M,,*5D
2025-07-28T06:28:17,390850615+02:00;$GPGGA,042817.20,5225.532173,N,01046.901318,E,1,07,0.6,62.3,M,46.0,M,,*52
2025-07-28T06:28:17,594195565+02:00;$GPGGA,042817.40,5225.532220,N,01046.901396,E,1,07,0.6,62.3,M,46.0,M,,*57
2025-07-28T06:28:17,792963752+02:00;$GPGGA,042817.60,5225.532267,N,01046.901479,E,1,07,0.6,62.3,M,46.0,M,,*50
2025-07-28T06:28:17,993896788+02:00;$GPGGA,042817.80,5225.532395,N,01046.901561,E,1,07,0.6,62.3,M,46.0,M,,*5A
2025-07-28T06:28:18,207392547+02:00;$GPGGA,042818.00,5225.532434,N,01046.901579,E,1,07,0.6,62.3,M,46.0,M,,*58
2025-07-28T06:28:18,395934749+02:00;$GPGGA,042818.20,5225.532487,N,01046.901617,E,1,07,0.6,62.6,M,46.0,M,,*5C
2025-07-28T06:28:18,595446335+02:00;$GPGGA,042818.40,5225.532524,N,01046.901751,E,1,07,0.6,62.7,M,46.0,M,,*50
2025-07-28T06:28:18,795073868+02:00;$GPGGA,042818.60,5225.532601,N,01046.901822,E,1,07,0.6,62.7,M,46.0,M,,*5D
2025-07-28T06:28:18,997591154+02:00;$GPGGA,042818.80,5225.532692,N,01046.901918,E,1,07,0.6,62.8,M,46.0,M,,*5E
2025-07-28T06:28:19,211770084+02:00;$GPGGA,042819.00,5225.532759,N,01046.902039,E,1,07,0.6,62.9,M,46.0,M,,*59
2025-07-28T06:28:19,394750402+02:00;$GPGGA,042819.20,5225.532878,N,01046.902149,E,1,07,0.6,62.8,M,46.0,M,,*50
2025-07-28T06:28:19,593447477+02:00;$GPGGA,042819.40,5225.532952,N,01046.902190,E,1,07,0.6,62.9,M,46.0,M,,*5A
2025-07-28T06:28:19,793643097+02:00;$GPGGA,042819.60,5225.532939,N,01046.902299,E,1,07,0.6,62.8,M,46.0,M,,*5E
2025-07-28T06:28:19,998168930+02:00;$GPGGA,042819.80,5225.533046,N,01046.902270,E,1,07,0.6,63.0,M,46.0,M,,*5E
2025-07-28T06:28:20,205248675+02:00;$GPGGA,042820.00,5225.533126,N,01046.902371,E,1,07,0.6,62.9,M,46.0,M,,*53
2025-07-28T06:28:20,394046870+02:00;$GPGGA,042820.20,5225.533223,N,01046.902490,E,1,07,0.6,62.9,M,46.0,M,,*5F
2025-07-28T06:28:20,593550423+02:00;$GPGGA,042820.40,5225.533251,N,01046.902624,E,1,07,0.6,62.8,M,46.0,M,,*50
2025-07-28T06:28:20,793382808+02:00;$GPGGA,042820.60,5225.533280,N,01046.902717,E,1,07,0.6,62.8,M,46.0,M,,*5F
2025-07-28T06:28:20,994051243+02:00;$GPGGA,042820.80,5225.533376,N,01046.902829,E,1,07,0.6,62.8,M,46.0,M,,*5B
2025-07-28T06:28:21,206151027+02:00;$GPGGA,042821.00,5225.533435,N,01046.902957,E,1,07,0.6,62.9,M,46.0,M,,*5B
2025-07-28T06:28:21,392275682+02:00;$GPGGA,042821.20,5225.533615,N,01046.903102,E,1,07,0.6,62.6,M,46.0,M,,*5F
2025-07-28T06:28:21,594685661+02:00;$GPGGA,042821.40,5225.533675,N,01046.903209,E,1,07,0.6,62.4,M,46.0,M,,*55
2025-07-28T06:28:21,796919592+02:00;$GPGGA,042821.60,5225.533765,N,01046.903216,E,1,07,0.6,62.2,M,46.0,M,,*5F
2025-07-28T06:28:21,996290748+02:00;$GPGGA,042821.80,5225.533839,N,01046.903252,E,1,07,0.6,62.1,M,46.0,M,,*54
2025-07-28T06:28:22,205950296+02:00;$GPGGA,042822.00,5225.533982,N,01046.903302,E,1,07,0.6,62.3,M,46.0,M,,*58
2025-07-28T06:28:22,394531061+02:00;$GPGGA,042822.20,5225.534012,N,01046.903258,E,1,07,0.6,62.4,M,46.0,M,,*54
2025-07-28T06:28:22,590845697+02:00;$GPGGA,042822.40,5225.534034,N,01046.903311,E,1,07,0.6,62.3,M,46.0,M,,*5D
2025-07-28T06:28:22,794518455+02:00;$GPGGA,042822.60,5225.534094,N,01046.903384,E,1,07,0.6,62.3,M,46.0,M,,*59
2025-07-28T06:28:22,994361946+02:00;$GPGGA,042822.80,5225.534293,N,01046.903570,E,1,07,0.6,62.4,M,46.0,M,,*58
2025-07-28T06:28:23,203191204+02:00;$GPGGA,042823.00,5225.534350,N,01046.903646,E,1,07,0.6,62.3,M,46.0,M,,*5E
2025-07-28T06:28:23,396408740+02:00;$GPGGA,042823.20,5225.534444,N,01046.903710,E,1,07,0.6,62.4,M,46.0,M,,*5B
2025-07-28T06:28:23,591212957+02:00;$GPGGA,042823.40,5225.534537,N,01046.903730,E,1,07,0.6,62.2,M,46.0,M,,*5C
2025-07-28T06:28:23,790614389+02:00;$GPGGA,042823.60,5225.534599,N,01046.903798,E,1,07,0.6,62.3,M,46.0,M,,*59
2025-07-28T06:28:23,993577926+02:00;$GPGGA,042823.80,5225.534713,N,01046.903786,E,1,07,0.6,62.6,M,46.0,M,,*5D
2025-07-28T06:28:24,204908419+02:00;$GPGGA,042824.00,5225.534837,N,01046.903840,E,1,07,0.6,62.6,M,46.0,M,,*5E
2025-07-28T06:28:24,396995893+02:00;$GPGGA,042824.20,5225.535100,N,01046.903931,E,1,07,0.6,62.4,M,46.0,M,,*55
2025-07-28T06:28:24,593958432+02:00;$GPGGA,042824.40,5225.535243,N,01046.904018,E,1,07,0.6,62.2,M,46.0,M,,*54
2025-07-28T06:28:24,792468577+02:00;$GPGGA,042824.60,5225.535342,N,01046.904136,E,1,07,0.6,62.6,M,46.0,M,,*5F
2025-07-28T06:28:24,994482422+02:00;$GPGGA,042824.80,5225.535507,N,01046.904171,E,1,07,0.6,62.8,M,46.0,M,,*5B
2025-07-28T06:28:25,205408108+02:00;$GPGGA,042825.00,5225.535747,N,01046.904186,E,1,07,0.6,62.4,M,46.0,M,,*50
2025-07-28T06:28:25,399250088+02:00;$GPGGA,042825.20,5225.535833,N,01046.904280,E,1,07,0.6,62.6,M,46.0,M,,*59
2025-07-28T06:28:25,594816524+02:00;$GPGGA,042825.40,5225.535954,N,01046.904299,E,1,07,0.6,62.5,M,46.0,M,,*54
2025-07-28T06:28:25,793818076+02:00;$GPGGA,042825.60,5225.536057,N,01046.904298,E,1,07,0.6,62.6,M,46.0,M,,*5D
2025-07-28T06:28:25,997360070+02:00;$GPGGA,042825.80,5225.536196,N,01046.904340,E,1,07,0.6,62.5,M,46.0,M,,*58
2025-07-28T06:28:26,211810642+02:00;$GPGGA,042826.00,5225.536346,N,01046.904200,E,1,07,0.6,62.5,M,46.0,M,,*59
2025-07-28T06:28:26,395929854+02:00;$GPGGA,042826.20,5225.536370,N,01046.904412,E,1,08,0.6,62.7,M,46.0,M,,*56
2025-07-28T06:28:26,594311859+02:00;$GPGGA,042826.40,5225.536453,N,01046.904436,E,1,08,0.6,62.6,M,46.0,M,,*51
2025-07-28T06:28:26,791019141+02:00;$GPGGA,042826.60,5225.536620,N,01046.904472,E,1,08,0.6,62.7,M,46.0,M,,*54
2025-07-28T06:28:26,990523047+02:00;$GPGGA,042826.80,5225.536730,N,01046.904535,E,1,08,0.6,63.0,M,46.0,M,,*5E
2025-07-28T06:28:27,204459105+02:00;$GPGGA,042827.00,5225.536772,N,01046.904644,E,1,08,0.6,63.3,M,46.0,M,,*57
2025-07-28T06:28:27,396529873+02:00;$GPGGA,042827.20,5225.536933,N,01046.904605,E,1,09,0.5,63.3,M,46.0,M,,*59
2025-07-28T06:28:27,594747190+02:00;$GPGGA,042827.40,5225.537054,N,01046.904595,E,1,09,0.5,63.5,M,46.0,M,,*5A
2025-07-28T06:28:27,791800842+02:00;$GPGGA,042827.60,5225.537233,N,01046.904635,E,1,09,0.5,63.9,M,46.0,M,,*5E
2025-07-28T06:28:27,995306416+02:00;$GPGGA,042827.80,5225.537350,N,01046.904700,E,1,09,0.5,63.9,M,46.0,M,,*53
2025-07-28T06:28:28,209716472+02:00;$GPGGA,042828.00,5225.537487,N,01046.904738,E,1,09,0.5,64.0,M,46.0,M,,*5C
2025-07-28T06:28:28,392526533+02:00;$GPGGA,042828.20,5225.537656,N,01046.904713,E,1,10,0.5,63.2,M,46.0,M,,*54
2025-07-28T06:28:28,594093871+02:00;$GPGGA,042828.40,5225.537738,N,01046.904616,E,1,10,0.5,63.3,M,46.0,M,,*5E
2025-07-28T06:28:28,794605043+02:00;$GPGGA,042828.60,5225.537801,N,01046.904541,E,1,10,0.5,63.4,M,46.0,M,,*5F
2025-07-28T06:28:28,993580161+02:00;$GPGGA,042828.80,5225.537882,N,01046.904498,E,1,10,0.5,63.4,M,46.0,M,,*5F
2025-07-28T06:28:29,204307780+02:00;$GPGGA,042829.00,5225.538178,N,01046.904264,E,1,10,0.5,63.5,M,46.0,M,,*51
2025-07-28T06:28:29,394785113+02:00;$GPGGA,042829.20,5225.538428,N,01046.904209,E,1,10,0.5,63.7,M,46.0,M,,*5A
2025-07-28T06:28:29,594623387+02:00;$GPGGA,042829.40,5225.538544,N,01046.904229,E,1,10,0.5,63.5,M,46.0,M,,*57
2025-07-28T06:28:29,793717973+02:00;$GPGGA,042829.60,5225.538681,N,01046.904247,E,1,10,0.5,63.4,M,46.0,M,,*56
2025-07-28T06:28:29,992872021+02:00;$GPGGA,042829.80,5225.538758,N,01046.904161,E,1,10,0.5,63.3,M,46.0,M,,*5D
2025-07-28T06:28:30,206741577+02:00;$GPGGA,042830.00,5225.538873,N,01046.904148,E,1,10,0.5,63.3,M,46.0,M,,*50
2025-07-28T06:28:30,399645482+02:00;$GPGGA,042830.20,5225.538977,N,01046.904000,E,1,10,0.5,62.9,M,46.0,M,,*51
2025-07-28T06:28:30,595498153+02:00;$GPGGA,042830.40,5225.539089,N,01046.903944,E,1,10,0.5,62.7,M,46.0,M,,*5E
2025-07-28T06:28:30,792047340+02:00;$GPGGA,042830.60,5225.539231,N,01046.903923,E,1,10,0.5,62.8,M,46.0,M,,*53
2025-07-28T06:28:30,996462602+02:00;$GPGGA,042830.80,5225.539385,N,01046.903860,E,1,10,0.5,62.7,M,46.0,M,,*5A
2025-07-28T06:28:31,204736735+02:00;$GPGGA,042831.00,5225.539612,N,01046.903856,E,1,10,0.5,63.0,M,46.0,M,,*5B
2025-07-28T06:28:31,396981376+02:00;$GPGGA,042831.20,5225.539616,N,01046.904157,E,1,10,0.5,62.9,M,46.0,M,,*5A
2025-07-28T06:28:31,593841345+02:00;$GPGGA,042831.40,5225.539708,N,01046.904567,E,1,10,0.5,63.0,M,46.0,M,,*5D
2025-07-28T06:28:31,792507826+02:00;$GPGGA,042831.60,5225.539760,N,01046.904550,E,1,10,0.5,62.7,M,46.0,M,,*53
2025-07-28T06:28:31,993852646+02:00;$GPGGA,042831.80,5225.539923,N,01046.904596,E,1,10,0.5,62.7,M,46.0,M,,*5E
2025-07-28T06:28:32,205443197+02:00;$GPGGA,042832.00,5225.540075,N,01046.904553,E,1,10,0.5,62.3,M,46.0,M,,*5C
2025-07-28T06:28:32,397690718+02:00;$GPGGA,042832.20,5225.540056,N,01046.904622,E,1,10,0.5,62.3,M,46.0,M,,*5A
2025-07-28T06:28:32,596258245+02:00;$GPGGA,042832.40,5225.540119,N,01046.904586,E,1,10,0.5,62.2,M,46.0,M,,*5A
2025-07-28T06:28:32,795942520+02:00;$GPGGA,042832.60,5225.540189,N,01046.904596,E,1,10,0.5,62.2,M,46.0,M,,*50
2025-07-28T06:28:32,994015023+02:00;$GPGGA,042832.80,5225.540294,N,01046.904626,E,1,10,0.5,62.1,M,46.0,M,,*5A
2025-07-28T06:28:33,204694285+02:00;$GPGGA,042833.00,5225.540502,N,01046.904731,E,1,10,0.5,62.1,M,46.0,M,,*5C
2025-07-28T06:28:33,395373974+02:00;$GPGGA,042833.20,5225.540658,N,01046.904732,E,1,10,0.5,61.7,M,46.0,M,,*54
2025-07-28T06:28:33,594545560+02:00;$GPGGA,042833.40,5225.540807,N,01046.904750,E,1,10,0.5,61.8,M,46.0,M,,*5D
2025-07-28T06:28:33,798687579+02:00;$GPGGA,042833.60,5225.540930,N,01046.904808,E,1,10,0.5,61.7,M,46.0,M,,*57
2025-07-28T06:28:33,999143066+02:00;$GPGGA,042833.80,5225.541068,N,01046.904870,E,1,10,0.5,61.8,M,46.0,M,,*5C
2025-07-28T06:28:34,207142132+02:00;$GPGGA,042834.00,5225.541225,N,01046.905087,E,1,10,0.5,61.9,M,46.0,M,,*58
2025-07-28T06:28:34,396890211+02:00;$GPGGA,042834.20,5225.541284,N,01046.905090,E,1,10,0.5,62.1,M,46.0,M,,*5C
2025-07-28T06:28:34,594451880+02:00;$GPGGA,042834.40,5225.541439,N,01046.905162,E,1,10,0.5,62.0,M,46.0,M,,*57
2025-07-28T06:28:34,796480798+02:00;$GPGGA,042834.60,5225.541587,N,01046.905241,E,1,10,0.5,62.0,M,46.0,M,,*53
2025-07-28T06:28:34,991369568+02:00;$GPGGA,042834.80,5225.541786,N,01046.905275,E,1,10,0.5,61.9,M,46.0,M,,*53
2025-07-28T06:28:35,205009950+02:00;$GPGGA,042835.00,5225.541929,N,01046.905230,E,1,10,0.5,61.7,M,46.0,M,,*5E
2025-07-28T06:28:35,395996805+02:00;$GPGGA,042835.20,5225.542147,N,01046.905403,E,1,10,0.5,62.1,M,46.0,M,,*5C
2025-07-28T06:28:35,592564394+02:00;$GPGGA,042835.40,5225.542258,N,01046.905405,E,1,10,0.5,61.9,M,46.0,M,,*5A
2025-07-28T06:28:35,802448699+02:00;$GPGGA,042835.60,5225.542398,N,01046.905436,E,1,10,0.5,61.8,M,46.0,M,,*54
2025-07-28T06:28:35,997911860+02:00;$GPGGA,042835.80,5225.542524,N,01046.905445,E,1,10,0.5,61.8,M,46.0,M,,*5F
2025-07-28T06:28:36,208325433+02:00;$GPGGA,042836.00,5225.542705,N,01046.905397,E,1,10,0.5,61.9,M,46.0,M,,*5C
2025-07-28T06:28:36,397995648+02:00;$GPGGA,042836.20,5225.542940,N,01046.905454,E,1,10,0.5,62.2,M,46.0,M,,*51
2025-07-28T06:28:36,594949867+02:00;$GPGGA,042836.40,5225.543051,N,01046.905446,E,1,10,0.5,62.3,M,46.0,M,,*5D
2025-07-28T06:28:36,799462482+02:00;$GPGGA,042836.60,5225.543329,N,01046.905454,E,1,10,0.5,62.3,M,46.0,M,,*50
2025-07-28T06:28:36,994683604+02:00;$GPGGA,042836.80,5225.543382,N,01046.905292,E,1,10,0.5,62.2,M,46.0,M,,*52
2025-07-28T06:28:37,205612075+02:00;$GPGGA,042837.00,5225.543434,N,01046.905243,E,1,10,0.5,62.4,M,46.0,M,,*5B
2025-07-28T06:28:37,398348764+02:00;$GPGGA,042837.20,5225.543594,N,01046.905181,E,1,10,0.5,62.5,M,46.0,M,,*5E
2025-07-28T06:28:37,594797781+02:00;$GPGGA,042837.40,5225.543705,N,01046.905065,E,1,10,0.5,62.6,M,46.0,M,,*5A
2025-07-28T06:28:37,793304150+02:00;$GPGGA,042837.60,5225.543866,N,01046.904920,E,1,10,0.5,62.8,M,46.0,M,,*55
2025-07-28T06:28:37,992929412+02:00;$GPGGA,042837.80,5225.543944,N,01046.904791,E,1,10,0.5,62.8,M,46.0,M,,*5E
2025-07-28T06:28:38,204654087+02:00;$GPGGA,042838.00,5225.544110,N,01046.904587,E,1,10,0.5,63.1,M,46.0,M,,*5A
2025-07-28T06:28:38,397089019+02:00;$GPGGA,042838.20,5225.544290,N,01046.904591,E,1,10,0.5,62.9,M,46.0,M,,*5D
2025-07-28T06:28:38,597539833+02:00;$GPGGA,042838.40,5225.544414,N,01046.904502,E,1,10,0.5,62.9,M,46.0,M,,*5B
2025-07-28T06:28:38,801339131+02:00;$GPGGA,042838.60,5225.544476,N,01046.904333,E,1,10,0.5,62.9,M,46.0,M,,*59
2025-07-28T06:28:38,992582843+02:00;$GPGGA,042838.80,5225.544633,N,01046.904173,E,1,10,0.5,62.8,M,46.0,M,,*53
2025-07-28T06:28:39,208604128+02:00;$GPGGA,042839.00,5225.544757,N,01046.903997,E,1,10,0.5,62.8,M,46.0,M,,*5C
2025-07-28T06:28:39,399636748+02:00;$GPGGA,042839.20,5225.544958,N,01046.903822,E,1,10,0.5,62.8,M,46.0,M,,*50
2025-07-28T06:28:39,599819599+02:00;$GPGGA,042839.40,5225.545078,N,01046.903633,E,1,10,0.5,62.9,M,46.0,M,,*53
2025-07-28T06:28:39,796003055+02:00;$GPGGA,042839.60,5225.545185,N,01046.903442,E,1,10,0.5,63.0,M,46.0,M,,*5E
2025-07-28T06:28:39,998649954+02:00;$GPGGA,042839.80,5225.545346,N,01046.903276,E,1,10,0.5,62.5,M,46.0,M,,*58
2025-07-28T06:28:40,212316450+02:00;$GPGGA,042840.00,5225.545473,N,01046.903118,E,1,10,0.5,62.7,M,46.0,M,,*56
2025-07-28T06:28:40,399143189+02:00;$GPGGA,042840.20,5225.545616,N,01046.903197,E,1,10,0.5,62.9,M,46.0,M,,*5C
2025-07-28T06:28:40,597146310+02:00;$GPGGA,042840.40,5225.545761,N,01046.903074,E,1,10,0.5,62.9,M,46.0,M,,*57
2025-07-28T06:28:40,797778805+02:00;$GPGGA,042840.60,5225.545930,N,01046.902983,E,1,10,0.5,62.8,M,46.0,M,,*5E
2025-07-28T06:28:40,999160013+02:00;$GPGGA,042840.80,5225.546066,N,01046.902859,E,1,10,0.5,62.8,M,46.0,M,,*5F
2025-07-28T06:28:41,214259896+02:00;$GPGGA,042841.00,5225.546208,N,01046.902731,E,1,10,0.5,62.7,M,46.0,M,,*52
2025-07-28T06:28:41,392759075+02:00;$GPGGA,042841.20,5225.546200,N,01046.902903,E,1,10,0.5,62.9,M,46.0,M,,*59
2025-07-28T06:28:41,595836608+02:00;$GPGGA,042841.40,5225.546418,N,01046.902859,E,1,10,0.5,62.9,M,46.0,M,,*5E
2025-07-28T06:28:41,794365731+02:00;$GPGGA,042841.60,5225.546583,N,01046.902803,E,1,10,0.5,62.8,M,46.0,M,,*51
2025-07-28T06:28:41,996065754+02:00;$GPGGA,042841.80,5225.546705,N,01046.902729,E,1,10,0.5,62.8,M,46.0,M,,*54
2025-07-28T06:28:42,207613517+02:00;$GPGGA,042842.00,5225.546855,N,01046.902714,E,1,10,0.5,62.8,M,46.0,M,,*5B
2025-07-28T06:28:42,397367164+02:00;$GPGGA,042842.20,5225.546771,N,01046.902875,E,1,10,0.5,63.1,M,46.0,M,,*50
2025-07-28T06:28:42,595837274+02:00;$GPGGA,042842.40,5225.546870,N,01046.902965,E,1,10,0.5,63.1,M,46.0,M,,*58
2025-07-28T06:28:42,791478373+02:00;$GPGGA,042842.60,5225.546900,N,01046.903029,E,1,10,0.5,63.1,M,46.0,M,,*5C
2025-07-28T06:28:42,991553406+02:00;$GPGGA,042842.80,5225.546968,N,01046.903178,E,1,10,0.5,62.8,M,46.0,M,,*51
2025-07-28T06:28:43,206762676+02:00;$GPGGA,042843.00,5225.547037,N,01046.903350,E,1,10,0.5,62.7,M,46.0,M,,*5D
2025-07-28T06:28:43,401623859+02:00;$GPGGA,042843.20,5225.547084,N,01046.903502,E,1,10,0.5,62.5,M,46.0,M,,*54
2025-07-28T06:28:43,595470192+02:00;$GPGGA,042843.40,5225.547171,N,01046.903592,E,1,09,0.5,62.8,M,46.0,M,,*55
2025-07-28T06:28:43,794085595+02:00;$GPGGA,042843.60,5225.547256,N,01046.903759,E,1,09,0.5,62.7,M,46.0,M,,*5B
2025-07-28T06:28:43,992914716+02:00;$GPGGA,042843.80,5225.547316,N,01046.903855,E,1,09,0.5,62.6,M,46.0,M,,*52
2025-07-28T06:28:44,207466066+02:00;$GPGGA,042844.00,5225.547199,N,01046.904052,E,1,09,0.5,63.0,M,46.0,M,,*57
2025-07-28T06:28:44,396481338+02:00;$GPGGA,042844.20,5225.547205,N,01046.904228,E,1,09,0.5,62.9,M,46.0,M,,*54
2025-07-28T06:28:44,591729471+02:00;$GPGGA,042844.40,5225.547219,N,01046.904421,E,1,09,0.5,63.1,M,46.0,M,,*59
2025-07-28T06:28:44,792877440+02:00;$GPGGA,042844.60,5225.547206,N,01046.904633,E,1,09,0.5,63.2,M,46.0,M,,*57
2025-07-28T06:28:44,992982524+02:00;$GPGGA,042844.80,5225.547207,N,01046.904825,E,1,09,0.5,63.1,M,46.0,M,,*52
2025-07-28T06:28:45,232179242+02:00;$GPGGA,042845.00,5225.547226,N,01046.904991,E,1,09,0.5,63.1,M,46.0,M,,*56
2025-07-28T06:28:45,396179574+02:00;$GPGGA,042845.20,5225.547269,N,01046.905150,E,1,09,0.5,63.0,M,46.0,M,,*5A
2025-07-28T06:28:45,597222926+02:00;$GPGGA,042845.40,5225.547239,N,01046.905324,E,1,09,0.5,63.1,M,46.0,M,,*59
2025-07-28T06:28:45,798087156+02:00;$GPGGA,042845.60,5225.547219,N,01046.905495,E,1,09,0.5,63.1,M,46.0,M,,*54
2025-07-28T06:28:45,993455460+02:00;$GPGGA,042845.80,5225.547133,N,01046.905698,E,1,09,0.5,63.1,M,46.0,M,,*5E
2025-07-28T06:28:46,209090307+02:00;$GPGGA,042846.00,5225.547076,N,01046.905894,E,1,09,0.5,63.1,M,46.0,M,,*57
2025-07-28T06:28:46,404150422+02:00;$GPGGA,042846.20,5225.547049,N,01046.906091,E,1,09,0.5,63.4,M,46.0,M,,*52
2025-07-28T06:28:46,601529002+02:00;$GPGGA,042846.40,5225.546960,N,01046.906200,E,1,09,0.5,63.3,M,46.0,M,,*5A
2025-07-28T06:28:46,797431854+02:00;$GPGGA,042846.60,5225.546890,N,01046.906350,E,1,09,0.5,63.4,M,46.0,M,,*55
2025-07-28T06:28:46,996721915+02:00;$GPGGA,042846.80,5225.546767,N,01046.906358,E,1,09,0.5,63.3,M,46.0,M,,*53
2025-07-28T06:28:47,207434013+02:00;$GPGGA,042847.00,5225.546749,N,01046.906341,E,1,09,0.5,63.4,M,46.0,M,,*59
2025-07-28T06:28:47,401989054+02:00;$GPGGA,042847.20,5225.546767,N,01046.906479,E,1,09,0.5,63.5,M,46.0,M,,*5A
2025-07-28T06:28:47,597416212+02:00;$GPGGA,042847.40,5225.546648,N,01046.906563,E,1,08,0.6,63.5,M,46.0,M,,*58
2025-07-28T06:28:47,795918293+02:00;$GPGGA,042847.60,5225.546527,N,01046.906563,E,1,08,0.6,63.4,M,46.0,M,,*51
2025-07-28T06:28:47,996095512+02:00;$GPGGA,042847.80,5225.546271,N,01046.906630,E,1,08,0.6,63.5,M,46.0,M,,*5F
2025-07-28T06:28:48,208004910+02:00;$GPGGA,042848.00,5225.546107,N,01046.906602,E,1,08,0.6,63.3,M,46.0,M,,*5D
2025-07-28T06:28:48,398121889+02:00;$GPGGA,042848.20,5225.546022,N,01046.906667,E,1,08,0.6,63.3,M,46.0,M,,*5A
2025-07-28T06:28:48,595648739+02:00;$GPGGA,042848.40,5225.545935,N,01046.906620,E,1,08,0.6,63.2,M,46.0,M,,*52
2025-07-28T06:28:48,797095745+02:00;$GPGGA,042848.60,5225.545839,N,01046.906551,E,1,08,0.6,63.2,M,46.0,M,,*58
2025-07-28T06:28:48,995904960+02:00;$GPGGA,042848.80,5225.545636,N,01046.906646,E,1,08,0.6,62.7,M,46.0,M,,*56
2025-07-28T06:28:49,209030572+02:00;$GPGGA,042849.00,5225.545427,N,01046.906549,E,1,08,0.6,62.6,M,46.0,M,,*50
2025-07-28T06:28:49,396452953+02:00;$GPGGA,042849.20,5225.545226,N,01046.906429,E,1,09,0.5,63.1,M,46.0,M,,*56
2025-07-28T06:28:49,600537592+02:00;$GPGGA,042849.40,5225.545033,N,01046.906373,E,1,09,0.5,63.1,M,46.0,M,,*5E
2025-07-28T06:28:49,796657617+02:00;$GPGGA,042849.60,5225.544811,N,01046.906332,E,1,09,0.5,63.0,M,46.0,M,,*51
2025-07-28T06:28:49,998875674+02:00;$GPGGA,042849.80,5225.544605,N,01046.906280,E,1,09,0.5,62.9,M,46.0,M,,*54
2025-07-28T06:28:50,214299653+02:00;$GPGGA,042850.00,5225.544470,N,01046.906139,E,1,09,0.5,62.8,M,46.0,M,,*54
2025-07-28T06:28:50,397479927+02:00;$GPGGA,042850.20,5225.544373,N,01046.906076,E,1,09,0.5,62.9,M,46.0,M,,*59
2025-07-28T06:28:50,603186643+02:00;$GPGGA,042850.40,5225.544203,N,01046.906026,E,1,09,0.5,62.9,M,46.0,M,,*5C
2025-07-28T06:28:50,795828347+02:00;$GPGGA,042850.60,5225.543991,N,01046.905956,E,1,09,0.5,62.8,M,46.0,M,,*55
2025-07-28T06:28:50,996469739+02:00;$GPGGA,042850.80,5225.543816,N,01046.905922,E,1,09,0.5,62.7,M,46.0,M,,*59
2025-07-28T06:28:51,209757255+02:00;$GPGGA,042851.00,5225.543587,N,01046.905806,E,1,09,0.5,62.7,M,46.0,M,,*52
2025-07-28T06:28:51,400088655+02:00;$GPGGA,042851.20,5225.543455,N,01046.905809,E,1,09,0.5,62.6,M,46.0,M,,*50
2025-07-28T06:28:51,595519269+02:00;$GPGGA,042851.40,5225.543308,N,01046.905701,E,1,09,0.5,62.7,M,46.0,M,,*5F
2025-07-28T06:28:51,797280866+02:00;$GPGGA,042851.60,5225.543182,N,01046.905639,E,1,09,0.5,62.6,M,46.0,M,,*56
2025-07-28T06:28:51,996828584+02:00;$GPGGA,042851.80,5225.543088,N,01046.905616,E,1,09,0.5,62.6,M,46.0,M,,*5E
2025-07-28T06:28:52,209949716+02:00;$GPGGA,042852.00,5225.542942,N,01046.905564,E,1,09,0.5,62.4,M,46.0,M,,*5F
2025-07-28T06:28:52,398188208+02:00;$GPGGA,042852.20,5225.542840,N,01046.905529,E,1,09,0.5,62.5,M,46.0,M,,*56
2025-07-28T06:28:52,600164354+02:00;$GPGGA,042852.40,5225.542697,N,01046.905458,E,1,09,0.5,62.4,M,46.0,M,,*52
2025-07-28T06:28:52,796402471+02:00;$GPGGA,042852.60,5225.542516,N,01046.905401,E,1,09,0.5,62.4,M,46.0,M,,*56
2025-07-28T06:28:52,998442463+02:00;$GPGGA,042852.80,5225.542401,N,01046.905390,E,1,09,0.5,62.4,M,46.0,M,,*50
2025-07-28T06:28:53,207662576+02:00;$GPGGA,042853.00,5225.542201,N,01046.905314,E,1,09,0.5,62.5,M,46.0,M,,*52
2025-07-28T06:28:53,401593845+02:00;$GPGGA,042853.20,5225.542182,N,01046.905262,E,1,09,0.5,62.6,M,46.0,M,,*5B
2025-07-28T06:28:53,599076787+02:00;$GPGGA,042853.40,5225.542058,N,01046.905181,E,1,09,0.5,62.6,M,46.0,M,,*55
2025-07-28T06:28:53,800166447+02:00;$GPGGA,042853.60,5225.541866,N,01046.905128,E,1,09,0.5,62.6,M,46.0,M,,*52
2025-07-28T06:28:53,996431863+02:00;$GPGGA,042853.80,5225.541655,N,01046.905178,E,1,09,0.5,62.5,M,46.0,M,,*54
2025-07-28T06:28:54,208425205+02:00;$GPGGA,042854.00,5225.541496,N,01046.905176,E,1,09,0.5,62.5,M,46.0,M,,*58
2025-07-28T06:28:54,399117984+02:00;$GPGGA,042854.20,5225.541522,N,01046.905266,E,1,09,0.5,62.5,M,46.0,M,,*56
2025-07-28T06:28:54,596371655+02:00;$GPGGA,042854.40,5225.541419,N,01046.905245,E,1,09,0.5,62.5,M,46.0,M,,*58
2025-07-28T06:28:54,795410268+02:00;$GPGGA,042854.60,5225.541261,N,01046.905075,E,1,09,0.5,62.1,M,46.0,M,,*56
2025-07-28T06:28:54,993778064+02:00;$GPGGA,042854.80,5225.541119,N,01046.904985,E,1,09,0.5,62.0,M,46.0,M,,*52
2025-07-28T06:28:55,207413357+02:00;$GPGGA,042855.00,5225.540948,N,01046.904987,E,1,09,0.5,62.0,M,46.0,M,,*54
2025-07-28T06:28:55,400169440+02:00;$GPGGA,042855.20,5225.540800,N,01046.904938,E,1,09,0.5,62.2,M,46.0,M,,*5D
2025-07-28T06:28:55,593982266+02:00;$GPGGA,042855.40,5225.540542,N,01046.904733,E,1,09,0.5,61.9,M,46.0,M,,*5D
2025-07-28T06:28:55,795849089+02:00;$GPGGA,042855.60,5225.540352,N,01046.904606,E,1,09,0.5,61.9,M,46.0,M,,*5F
2025-07-28T06:28:56,002497880+02:00;$GPGGA,042855.80,5225.540235,N,01046.904473,E,1,09,0.5,61.8,M,46.0,M,,*50
2025-07-28T06:28:56,212077836+02:00;$GPGGA,042856.00,5225.540094,N,01046.904325,E,1,09,0.5,61.8,M,46.0,M,,*56
2025-07-28T06:28:56,396683208+02:00;$GPGGA,042856.20,5225.540110,N,01046.904654,E,1,09,0.5,62.0,M,46.0,M,,*51
2025-07-28T06:28:56,594214923+02:00;$GPGGA,042856.40,5225.540030,N,01046.904624,E,1,09,0.5,61.8,M,46.0,M,,*58
2025-07-28T06:28:56,798769911+02:00;$GPGGA,042856.60,5225.539953,N,01046.904588,E,1,09,0.5,61.7,M,46.0,M,,*52
2025-07-28T06:28:56,995331932+02:00;$GPGGA,042856.80,5225.539840,N,01046.904300,E,1,09,0.5,61.7,M,46.0,M,,*59
2025-07-28T06:28:57,208699455+02:00;$GPGGA,042857.00,5225.539749,N,01046.904223,E,1,09,0.5,61.5,M,46.0,M,,*54
2025-07-28T06:28:57,395497200+02:00;$GPGGA,042857.20,5225.539676,N,01046.904253,E,1,09,0.5,61.3,M,46.0,M,,*5A
2025-07-28T06:28:57,594905417+02:00;$GPGGA,042857.40,5225.539591,N,01046.904153,E,1,09,0.5,61.2,M,46.0,M,,*54
2025-07-28T06:28:57,792357220+02:00;$GPGGA,042857.60,5225.539443,N,01046.904352,E,1,09,0.5,61.1,M,46.0,M,,*58
2025-07-28T06:28:57,991071513+02:00;$GPGGA,042857.80,5225.539411,N,01046.904349,E,1,09,0.5,60.9,M,46.0,M,,*52
2025-07-28T06:28:58,204396504+02:00;$GPGGA,042858.00,5225.539479,N,01046.903999,E,1,09,0.5,60.7,M,46.0,M,,*55
2025-07-28T06:28:58,395997915+02:00;$GPGGA,042858.20,5225.539348,N,01046.903767,E,1,09,0.5,60.4,M,46.0,M,,*5E
2025-07-28T06:28:58,592422130+02:00;$GPGGA,042858.40,5225.539395,N,01046.903693,E,1,09,0.5,60.4,M,46.0,M,,*52
2025-07-28T06:28:58,792099237+02:00;$GPGGA,042858.60,5225.539433,N,01046.903776,E,1,09,0.5,60.2,M,46.0,M,,*57
2025-07-28T06:28:58,992218755+02:00;$GPGGA,042858.80,5225.539478,N,01046.903845,E,1,09,0.5,60.1,M,46.0,M,,*5A
2025-07-28T06:28:59,206411799+02:00;$GPGGA,042859.00,5225.539522,N,01046.903908,E,1,09,0.5,60.0,M,46.0,M,,*54
2025-07-28T06:28:59,398482599+02:00;$GPGGA,042859.20,5225.538425,N,01046.904108,E,1,09,0.5,59.5,M,46.0,M,,*51
2025-07-28T06:28:59,596838394+02:00;$GPGGA,042859.40,5225.538264,N,01046.904208,E,1,09,0.5,59.5,M,46.0,M,,*57
2025-07-28T06:28:59,796240370+02:00;$GPGGA,042859.60,5225.538061,N,01046.903593,E,1,09,0.5,59.2,M,46.0,M,,*57
2025-07-28T06:28:59,995585797+02:00;$GPGGA,042859.80,5225.537904,N,01046.903416,E,1,09,0.5,59.1,M,46.0,M,,*53
2025-07-28T06:29:00,209741973+02:00;$GPGGA,042900.00,5225.537727,N,01046.903290,E,1,09,0.5,59.1,M,46.0,M,,*51
2025-07-28T06:29:00,393341327+02:00;$GPGGA,042900.20,5225.537573,N,01046.903100,E,1,09,0.5,58.9,M,46.0,M,,*53
2025-07-28T06:29:00,593199828+02:00;$GPGGA,042900.40,5225.537406,N,01046.903105,E,1,09,0.5,59.4,M,46.0,M,,*5F
2025-07-28T06:29:00,793733818+02:00;$GPGGA,042900.60,5225.537335,N,01046.903044,E,1,09,0.5,59.4,M,46.0,M,,*5E
2025-07-28T06:29:00,995035018+02:00;$GPGGA,042900.80,5225.537118,N,01046.902995,E,1,09,0.5,59.5,M,46.0,M,,*58
2025-07-28T06:29:01,209861499+02:00;$GPGGA,042901.00,5225.536934,N,01046.902967,E,1,09,0.5,59.6,M,46.0,M,,*58
2025-07-28T06:29:01,393915138+02:00;$GPGGA,042901.20,5225.536738,N,01046.903106,E,1,09,0.5,60.0,M,46.0,M,,*5A
2025-07-28T06:29:01,595248181+02:00;$GPGGA,042901.40,5225.536591,N,01046.903073,E,1,09,0.5,60.1,M,46.0,M,,*5F
2025-07-28T06:29:01,794034258+02:00;$GPGGA,042901.60,5225.536374,N,01046.902947,E,1,09,0.5,60.1,M,46.0,M,,*5F
2025-07-28T06:29:01,995552951+02:00;$GPGGA,042901.80,5225.536187,N,01046.902828,E,1,09,0.5,60.1,M,46.0,M,,*57
2025-07-28T06:29:02,209422316+02:00;$GPGGA,042902.00,5225.536050,N,01046.902701,E,1,09,0.5,60.2,M,46.0,M,,*50
2025-07-28T06:29:02,397033899+02:00;$GPGGA,042902.20,5225.535992,N,01046.902573,E,1,09,0.5,60.4,M,46.0,M,,*57
2025-07-28T06:29:02,596576337+02:00;$GPGGA,042902.40,5225.535848,N,01046.902494,E,1,09,0.5,60.3,M,46.0,M,,*58
2025-07-28T06:29:02,796281511+02:00;$GPGGA,042902.60,5225.535707,N,01046.902439,E,1,09,0.5,60.3,M,46.0,M,,*59
2025-07-28T06:29:02,995192367+02:00;$GPGGA,042902.80,5225.535586,N,01046.902445,E,1,09,0.5,60.6,M,46.0,M,,*52
2025-07-28T06:29:03,208316955+02:00;$GPGGA,042903.00,5225.535455,N,01046.902371,E,1,09,0.5,60.7,M,46.0,M,,*55
2025-07-28T06:29:03,397282143+02:00;$GPGGA,042903.20,5225.535163,N,01046.902409,E,1,09,0.5,61.0,M,46.0,M,,*59
2025-07-28T06:29:03,596620529+02:00;$GPGGA,042903.40,5225.535048,N,01046.902338,E,1,09,0.5,61.0,M,46.0,M,,*52
2025-07-28T06:29:03,796730029+02:00;$GPGGA,042903.60,5225.534944,N,01046.902355,E,1,09,0.5,60.8,M,46.0,M,,*56
2025-07-28T06:29:03,993946354+02:00;$GPGGA,042903.80,5225.534827,N,01046.902322,E,1,09,0.5,60.9,M,46.0,M,,*5D
2025-07-28T06:29:04,206758143+02:00;$GPGGA,042904.00,5225.534786,N,01046.902274,E,1,09,0.5,61.0,M,46.0,M,,*5C
2025-07-28T06:29:04,401661987+02:00;$GPGGA,042904.20,5225.534750,N,01046.902190,E,1,09,0.5,60.9,M,46.0,M,,*54
2025-07-28T06:29:04,597510402+02:00;$GPGGA,042904.40,5225.534669,N,01046.902160,E,1,09,0.5,60.9,M,46.0,M,,*56
2025-07-28T06:29:04,796243897+02:00;$GPGGA,042904.60,5225.534505,N,01046.902121,E,1,09,0.5,61.2,M,46.0,M,,*52
2025-07-28T06:29:04,998785378+02:00;$GPGGA,042904.80,5225.534377,N,01046.902125,E,1,09,0.5,61.2,M,46.0,M,,*5B
2025-07-28T06:29:05,210254926+02:00;$GPGGA,042905.00,5225.534308,N,01046.902146,E,1,09,0.5,60.8,M,46.0,M,,*54
2025-07-28T06:29:05,397182187+02:00;$GPGGA,042905.20,5225.534143,N,01046.902111,E,1,09,0.5,60.7,M,46.0,M,,*56
2025-07-28T06:29:05,597082868+02:00;$GPGGA,042905.40,5225.533996,N,01046.902110,E,1,09,0.5,60.6,M,46.0,M,,*57
2025-07-28T06:29:05,796524624+02:00;$GPGGA,042905.60,5225.533835,N,01046.902200,E,1,09,0.5,60.8,M,46.0,M,,*51
2025-07-28T06:29:05,995892421+02:00;$GPGGA,042905.80,5225.533762,N,01046.902188,E,1,09,0.5,60.8,M,46.0,M,,*51
2025-07-28T06:29:06,210226918+02:00;$GPGGA,042906.00,5225.533658,N,01046.902195,E,1,09,0.5,60.8,M,46.0,M,,*5E
2025-07-28T06:29:06,397888011+02:00;$GPGGA,042906.20,5225.533743,N,01046.902108,E,1,09,0.5,60.6,M,46.0,M,,*5D
2025-07-28T06:29:06,598123636+02:00;$GPGGA,042906.40,5225.533641,N,01046.902135,E,1,08,0.6,60.6,M,46.0,M,,*54
2025-07-28T06:29:06,793244141+02:00;$GPGGA,042906.60,5225.533675,N,01046.902115,E,1,08,0.6,60.6,M,46.0,M,,*53
2025-07-28T06:29:06,995068240+02:00;$GPGGA,042906.80,5225.533581,N,01046.902146,E,1,08,0.6,60.6,M,46.0,M,,*53
2025-07-28T06:29:07,210146618+02:00;$GPGGA,042907.00,5225.533506,N,01046.902230,E,1,08,0.6,60.6,M,46.0,M,,*57
2025-07-28T06:29:07,397366004+02:00;$GPGGA,042907.20,5225.533434,N,01046.902306,E,1,08,0.6,60.6,M,46.0,M,,*51
2025-07-28T06:29:07,595722726+02:00;$GPGGA,042907.40,5225.533412,N,01046.902274,E,1,08,0.6,60.2,M,46.0,M,,*53
2025-07-28T06:29:07,794177859+02:00;$GPGGA,042907.60,5225.533467,N,01046.902314,E,1,08,0.6,59.8,M,46.0,M,,*54
2025-07-28T06:29:07,994181301+02:00;$GPGGA,042907.80,5225.533416,N,01046.902309,E,1,08,0.6,59.7,M,46.0,M,,*5F
2025-07-28T06:29:08,204349442+02:00;$GPGGA,042908.00,5225.533299,N,01046.902349,E,1,08,0.6,59.6,M,46.0,M,,*5C
2025-07-28T06:29:08,395756083+02:00;$GPGGA,042908.20,5225.532977,N,01046.902396,E,1,08,0.6,60.2,M,46.0,M,,*58
2025-07-28T06:29:08,596390307+02:00;$GPGGA,042908.40,5225.532880,N,01046.902429,E,1,08,0.6,60.3,M,46.0,M,,*55
2025-07-28T06:29:08,794339886+02:00;$GPGGA,042908.60,5225.532834,N,01046.902403,E,1,08,0.6,60.3,M,46.0,M,,*50
2025-07-28T06:29:08,993944218+02:00;$GPGGA,042908.80,5225.532658,N,01046.902384,E,1,08,0.6,60.5,M,46.0,M,,*54
2025-07-28T06:29:09,209975072+02:00;$GPGGA,042909.00,5225.532474,N,01046.902440,E,1,08,0.6,60.8,M,46.0,M,,*53
2025-07-28T06:29:09,398515738+02:00;$GPGGA,042909.20,5225.532290,N,01046.902440,E,1,08,0.6,60.7,M,46.0,M,,*52
2025-07-28T06:29:09,594144868+02:00;$GPGGA,042909.40,5225.532245,N,01046.902401,E,1,08,0.6,60.5,M,46.0,M,,*5B
2025-07-28T06:29:09,794547677+02:00;$GPGGA,042909.60,5225.532185,N,01046.902441,E,1,08,0.6,60.7,M,46.0,M,,*50
2025-07-28T06:29:09,995940119+02:00;$GPGGA,042909.80,5225.532076,N,01046.902497,E,1,08,0.6,60.5,M,46.0,M,,*5A
2025-07-28T06:29:10,212587001+02:00;$GPGGA,042910.00,5225.531991,N,01046.902505,E,1,08,0.6,60.5,M,46.0,M,,*53
2025-07-28T06:29:10,398599134+02:00;$GPGGA,042910.20,5225.531904,N,01046.902412,E,1,08,0.6,60.5,M,46.0,M,,*5A
2025-07-28T06:29:10,595636592+02:00;$GPGGA,042910.40,5225.531900,N,01046.902422,E,1,08,0.6,60.5,M,46.0,M,,*5B
2025-07-28T06:29:10,794888538+02:00;$GPGGA,042910.60,5225.531832,N,01046.902432,E,1,08,0.6,60.4,M,46.0,M,,*59
2025-07-28T06:29:10,994700218+02:00;$GPGGA,042910.80,5225.531795,N,01046.902404,E,1,08,0.6,60.4,M,46.0,M,,*50
